,city,latitude,longitude,name,rank,rating,review_count
0,Atlanta,33.8578,-84.38258,jinya-ramen-bar-atlanta-7,0,4.5,101
1,Atlanta,33.8005400945021,-84.4084578752518,ginya-izakaya-atlanta-4,1,4.0,231
2,Sandy Springs,33.9183699593665,-84.3773832515941,jinya-ramen-bar-sandy-springs,2,4.0,579
3,Atlanta,33.8191873432516,-84.3497106029716,hajime-atlanta-3,3,3.5,300
4,Atlanta,33.786349,-84.398266,wagaya-japanese-restaurant-westside-atlanta-4,4,4.0,336
