,city,latitude,longitude,name,rank,rating,review_count
0,Denver,39.7621349,-105.0133389,uncle-denver,0,4.0,850
1,Denver,39.75954,-104.98609,osaka-ramen-denver,1,4.0,292
2,Denver,39.7618827819824,-105.03401184082,seras-ramen-enclave-denver-2,2,4.0,169
3,Denver,39.7398648818036,-104.982504062355,tycoon-ramen-and-sushi-denver,3,4.0,141
4,Denver,39.74716,-104.99429,menya-noodle-bar-denver,4,4.0,225
