,latitude,longitude,name,rank,rating,review_count
0,34.049999,-118.24007,daikokuya-little-tokyo-los-angeles,0,4.0,7184
1,34.0573614429986,-118.306769744705,slurpin-ramen-bar-los-angeles,1,4.5,1920
2,34.0837107,-118.3446759,tatsu-ramen-los-angeles-4,2,4.0,2170
3,34.0835268538041,-118.273676509195,silverlake-ramen-los-angeles,3,4.0,2272
4,34.0049599,-118.43359,hokkaido-ramen-santouka-los-angeles,4,4.5,2041
