,city,latitude,longitude,name,rank,rating,review_count
0,New York,40.72969,-74.000629,saigon-shack-new-york,0,4.0,1903
1,New York,40.717587,-73.9944029,pho-vietnam-new-york-2,1,4.0,334
2,Brooklyn,40.6814048,-73.9771062,5ive-spice-brooklyn-3,2,4.0,376
3,New York,40.7606166,-73.991225,obao-new-york-3,3,4.0,1422
4,New York,40.7289399955423,-74.0009501203895,hello-saigon-new-york,4,4.5,39
