,city,latitude,longitude,name,rank,rating,review_count
0,Portland,45.5170715600252,-122.675132229924,lúc-lác-portland-3,0,4.0,1845
1,Portland,45.4977027804404,-122.613812713786,pho-hung-portland,1,4.0,446
2,Portland,45.5403,-122.57853,pho-oregon-restaurant-portland,2,4.0,472
3,Portland,45.5189283292234,-122.67607302943,fresh-roll-vietnamese-street-food-portland-4,3,4.5,315
4,Portland,45.4850099999821,-122.757044136781,pho-nguyen-portland,4,4.0,142
