,city,latitude,longitude,name,rank,rating,review_count
0,San Francisco,37.7852337,-122.4315788,marufuku-ramen-san-francisco,0,4.5,604
1,San Francisco,37.7866908459856,-122.414326295257,mensho-tokyo-san-francisco-2,1,4.0,1135
2,San Francisco,37.763879,-122.47413,izakaya-sozai-san-francisco,2,4.0,1838
3,San Francisco,37.7861574638014,-122.430057115853,hinodeya-ramen-bar-san-francisco,3,4.0,423
4,San Francisco,37.78726,-122.41037,katana-ya-san-francisco,4,3.5,3863
