,city,latitude,longitude,name,rank,rating,review_count
0,Vancouver,49.280732893097,-123.132241982278,pho-goodness-vancouver-2,0,3.5,146
1,Vancouver,49.28416,-123.1127,pholicious-vancouver-2,1,4.5,71
2,Vancouver,49.2554137,-123.1149178,pho-xe-lua-24-vancouver,2,4.0,71
3,Vancouver,49.28297,-123.11279,ha-long-bay-vancouver,3,4.0,116
4,Vancouver,49.2445748,-123.0642461,mui-ngo-gai-vancouver-2,4,4.0,143
