,city,latitude,longitude,name,rank,rating,review_count
0,"Washington, DC",38.9350929260254,-77.0323791503906,pho-viet-washington,0,4.0,568
1,"Washington, DC",38.930646,-77.033999,pho-14-washington,1,4.0,721
2,Arlington,38.8941969403826,-77.0788539337479,pho-75-arlington,2,4.0,1347
3,"Washington, DC",38.89955,-77.02056,pho-88-noodles-and-grill-washington,3,3.5,194
4,"Washington, DC",38.87742,-77.01632,pho-junkies-washington,4,4.5,140
